var markers = [
        {
            "documents": [
                {
                    "id": "1",
                    "title": "Universal Declaration for Human Rights",
                    "decription": "\"The Declaration was the first step in the process of formulating the International Bill of Human Rights http://www.un.org/en/universal-declaration-human-rights/\"",
					"year": "1948",
					"lat":  "40.7142700",
					"lon": "-74.0059700"
                },
                {
                    "id": "2",
                    "title": "European Convention for Human Rights",
                    "description": "\"Basic European document\"",
					"year": "1950",
					"lat": "48.5839200",
					"lon": "7.7455300"
                },
                {
                    "id": "3",
                    "title": "International Covenant on Civil and Political Rights",
                    "description": "\"Part of the International Bill of Human Rights, https://treaties.un.org/doc/publication/unts/volume%20999/volume-999-i-14668-english.pdf\"",
					"year": "1966",
					"lat": "40.742997028",
					"lon": "-73.96749613"
                },
				{
                    "id": "4",
                    "title": "Magna Charta",
                    "description": "\"The first agreement between the sovereign and his vassals\"",
					"year": "1238",
					"lat": "51.508530",
					"lon": "-0.076132"
                }

            ]
        },
		{
			"people": [
				{
					"id": "5",
                    "name": "Mahatma Ghandi",
                    "description": "\"India\"",
					"year of birth": "1869",
					"year of death": "1948",
					"lat": "28.6448",
					"lon": "77.216721"
				}
			]
		},
      {
			"events": [
				{
					"id": "6",
                    "name": "Red square",
                    "description": "\"India\"",
					"year of birth": "1869",
					"year of death": "1948",
					"lat": "37.620407",
					"lon": "55.754093"
				}
			]
		}
	]

